Year Completed,Status,Job Number,Sector,Job Name,Contractor,Project Address,State,Latitude,Longitude,Link
2025,Complete,AUZUS0313,Aviation,Dulles Airport - United Airlines Terminal,J&J Construction,"1 Saarinen Circle Dulles, VA. 20166",Virginia,38.94891,-77.45099556,
2020,Complete,AUZUS0141,Aviation,Franklin Aviation,Jordan Foster - El Paso,1800 Hawkins Blvd El Pao TX 79925,Texas,31.79717177,-106.3718929,
2025,Complete,AUZUS0238,Aviation,DFW Terminal C Reno,Suffolk Construction,"2330 International Pkwy, DFW Airport, Texas, 75261",Texas,32.89908941,-97.03597297,
2025,Complete,AUZUS0319,Aviation,Ronald Reagan Washington National Airport (DCA) Breakrooms,J&J Construction,"2401 Ronald Regan Washington National Access Rd., Arlington, VA. 22202",Virginia,38.8512427,-77.04023079,
In Progress,Active,AUZUS0277,Aviation,"George Bush International Airport (IAH) - United Airlines, Terminal B",Clark Construction,"2800 N Terminal Rd, Houston, TX 77032",Texas,29.98567172,-95.33206284,
2025,Complete,AUZUS0221,Aviation,TPA Airside A&E,Suffolk Construction,"4100 George J. Bean Parkway  Tampa, FL 33604",Florida,27.98025946,-82.53814562,
2023,Complete,AUZUS0177,Aviation,Goodwill Airport Freeway,FPI Builders,"4200 Airport Freeway Fort Worth, TX76117",Texas,32.7752801,-97.28539212,
In Progress,Active,AUZUS0296,Aviation,MTN ATC Tower,Towson Mechanical Inc,"701 Wilson Point Rd. Baltimore, MD 21220",Maryland,39.32786673,-76.42195198,
2025,Complete,AUZUS0290,,3201 Olympus - Paseo Panel Repair,"Billingsly Property Services II, Inc",3201 Olympus Blvd. Coppell TX 75019,Texas,32.93681745,-96.98439379,
2025,Complete,AUZUS0230,Aviation,FAA ARSR,"Griffith Contracting, LLC","9585 SE 59th St. Oklahoma City, OK 73150",Oklahoma,35.40617952,-97.35987131,
2017,Complete,AUZUS0077,Aviation,Eglin Acurl,Sauer Inc,Eglin FL.  Air Force Base,Florida,30.47519144,-86.56230712,
2022,Complete,AUZUS0176,Aviation,FAA (Fabrication Project),Balfour Beatty - Dallas,1444 N Cockrell Hill Rd Dallas TX 75211,Fabrication Project,32.76162987,-96.89351495,
2019,Complete,AUZUS0088,Church,First Baptist Church Forney,Hill & Wilkinson,1003 College Street Fourney TX 75126,Texas,32.73507758,-96.46512376,https://www.auzmet.com/first-baptist-church-forney
2020,Complete,AUZUS0122,Church,First Baptist Church Horner,Austin Commercial - Dallas,1707 San Jacinto St Dallas TX 75201,Texas,32.78516966,-96.79985206,
2016,Complete,AUZUS0033,Church,CHASE OAKS CHURCH,Medco Construction,281 Legacy Dr Plano TX 75023,Texas,33.068665,-96.696456,
2025,Complete,AUZUS0244,Church,Christ Chapel Bible Church,FPI Builders,"3740 Birchman Ave. Fort Worth, TX, 76107",Texas,32.7345411,-97.37175978,
In Progress,Active,AUZUS0257,Commercial,Gregg County Parking Garage,Spawglass,"101 E Methvin St, Longview TX, 75601",Texas,32.49689988,-94.73877972,
2017,Complete,AUZUS0060,Commercial,Broadstone Park place,Alliance Residential,1025 Preston Rd. Plano TX 75093,Texas,33.01522727,-96.79678874,
2024,Complete,AUZUS0174,Commercial,Symphony Square - Office,Greystar,"1104 Sabine St, Austin, TX 78701",Texas,30.27112792,-97.73444705,
2020,Complete,AUZUS0135,Commercial,Interlock Atlanta,Armada Hoffler Construction,1115 Howell Mill Rd Atlanta GA 30318,Georgia,33.78526266,-84.4113683,
2025,Complete,AUZUS0247,Commercial,Bank 7,Precision Group,"115 W A St, Watonga, OK 73772",Oklahoma,35.84297027,-98.41387594,
2024,Complete,AUZUS0175,Commercial,Broadmoor Block A,White Construction,"11515 Burnet Road, Austin, TX 78758",Texas,30.40075539,-97.71810485,
2019,Complete,AUZUS0105,Commercial,Intergis Moore OK - West,Admiral Roofing,1204 N. Flood Norman OK 73069,Oklahoma,35.23085121,-97.45379889,
2022,Complete,AUZUS0170,Commercial,N. Dallas Bank & Trust,Pacific Builders,"12900 Preston Rd Dallas, TX 75230",Texas,32.92397133,-96.80289943,
2025,Complete,AUZUS0242,Commercial,Markum Ranch,FPI Builders,"1401 Markum Ranch Road E Fort Worth, TX 76126",Texas,32.6898836,-97.51294718,
2018,Complete,AUZUS0085,Commercial,Fourteen 555 Cawley,Hill & Wilkinson,14555 Dallas Pkwy Addison TX 75254,Texas,32.94283487,-96.82396215,
2016,Complete,AUZUS0012,Commercial,CAWLEY CENTER TOLLWAY PLAZA,Hill & Wilkinson,14675 Dallas Parkway Addison TX 75254,Texas,32.946172,-96.824726,
2018,Complete,AUZUS0092,Education,Allen ISD - Kerr,Balfour Beatty - Dallas,1325 Glendover Dr Allen TX 75013,Texas,33.11837864,-96.70287447,
2023,Complete,AUZUS0189,Commercial,WalMart Sanford,FMGI - ATL,"1601 Rynehart Rd. Sanford, FL 32771",Florida,28.80246252,-81.32807992,https://www.auzmet.com/walmart-sanford
2023,Complete,AUZUS0166,Commercial,SPC Downtown Lubbock Campus,Lee Lewis Construction,"1625 13th St Lubbock, TX 79401",Texas,33.58318035,-101.8539095,
In Progress,Active,AUZUS0303,Commercial,HEB 1701 W Euless Reno,SDB Contracting Services,"1701 West Euless Blvd. Euless, TX 76040",Texas,32.82448845,-97.10981999,
2019,Complete,AUZUS0120,Commercial,Flower Child (previously Farmers Market),Weis Builders,1915 Cadiz St Dallas TX 75201,Texas,32.77775601,-96.79186808,https://www.auzmet.com/flower-child
2016,Complete,AUZUS0050,Commercial,1919 Mckinney ,Turner Construction - Dallas,1919 McKinney Ave Dallas TX 75002,Texas,32.76679442,-96.78944526,
In Progress,Active,AUZUS0264,Commercial,Parkside Tower,Austin Commerical,"1919 Woodall Rodgers Freeway Dallas, TX 75201",Texas,32.78951311,-96.80267706,
2016,Complete,AUZUS0022,Commercial,1920 Mckinney,Hayler Greer Inc,1920 McKinney Ave Dallas TX 75002,Texas,32.790171,-96.803522,
2023,Complete,AUZUS0179,Commercial,WalMart Tampa,FMGI - ATL,"19910 Bruce B Downs BLVD Tampa, FL 33647",Florida,28.15535554,-82.35662825,https://www.auzmet.com/walmart-tampa
2024,Complete,AUZUS0252,Commercial,TCC 7th Floor,Division 7,"2000 McKinney Ave Suite 700, Dallas, TX 75201",Texas,32.79065405,-96.80297581,
2019,Complete,AUZUS0124,Commercial,Hensley,Hill & Wilkinson,2108 Joe Field Road Dallas TX 75229,Texas,32.89152681,-96.90806189,
2025,Complete,AUZUS0317,Commercial,Lockheed Martin 11th Floor,Burns & McDonnell,"2121 Crystal Dr, Arlington, VA. 22201",Virginia,38.85472336,-77.04808072,
2025,Complete,AUZUS0318,Commercial,Lockheed Martin 10th Floor Common Area + Demo,Burns and McDonnell,2121 Crystal Drive Arlington VA 22201,Virginia,38.854724,-77.04808106,
2017,Complete,AUZUS0062,Commercial,Summit Racing Equipment,Alston Construction,2200 E Interstate 20 fwy Arlington TX 76018,Texas,32.67582564,-97.07074434,https://www.auzmet.com/summit-racing
2016,Complete,AUZUS0047,Commercial,Lakeside Lobby,Trinity Glazing,2221 Lakeside Blvd Richardson TX 75082,Texas,32.98007473,-96.71093823,
In Progress,Active,AUZUS0271,Commercial,Henderson Ave Mixed Used Development,Balfour Beatty,"2260 N Henderson Ave, Dallas, TX 75206",Texas,32.81403536,-96.77756359,
2026,Active,AUZUS0243,Commercial,Project Meadow,Balfour Beatty,"2323 North Field Street
Dallas, TX 75201",Texas,32.78803364,-96.80759421,
In Progress,Active,AUZUS0299,Commercial,Amazon Station,Adolfson & Peterson,"2525 CR 172 Industrial. Round Rock, TX 78681",Texas,30.48090719,-97.69422377,
2021,Complete,AUZUS0144,Commercial,The Link,Balfour Beatty - Dallas,261 Olive St Dallas TX 75201,Texas,32.78334049,-96.79428052,https://www.auzmet.com/the-link
2016,Complete,AUZUS0021,Commercial,MMMC Kitchen,The Beck Group,2700 E Broad ST Mansfield TX 76063,Texas,32.568371,-97.094553,
2016,Complete,AUZUS0018,Commercial,CITYPLACE,Read Architectural Products,"2711 N Haskell AVE Dallas, TX 75204",Texas,32.806288,-96.791757,
2019,Complete,AUZUS0127,Commercial,Burlington,TDS Construction Inc,2871 Preston Rd Frisco TX 75034,Texas,33.10293956,-96.80790907,
2025,Complete,AUZUS0201,Commercial,300 Banyan,Gilbane Building Company,"300 Banyan Blvd., West Palm Beach, FL 33401",Florida,26.71397188,-80.05211636,https://www.auzmet.com/300banyan
In Progress,Active,AUZUS0306,Commercial,Sampson Paint Mixed Use,W.M. Jordan,"301 Hull St. Richmond, VA 23224",Virginia,37.52591497,-77.43766114,
2016,Complete,AUZUS0045,Commercial,Citymark,Balfour Beatty,3100 McKinnon St Dallas TX 75201,Texas,32.79842807,-96.81155669,
2018,Complete,AUZUS0084,Commercial,3100 Olympus,Balfour Beatty,3100 Olympus Dr.  Coppell TX 75019,Texas,32.93532836,-96.98375487,https://www.auzmet.com/3100-olympus
2019,Complete,AUZUS0104,Commercial,McLane Classic foods,Hill & Wilkinson,3165 S Burlesson Blvd. Burlesson TX 76028,Texas,32.47188234,-97.2664664,
2025,Complete,AUZUS0219,Commercial,Global Wafers,Austin Commercial Industries,"3200 Northgate Dr.
Sherman, TX 75092",Texas,33.59358361,-96.61793256,
2020,Complete,AUZUS0102,Commercial,3200 Olympus,Balfour Beatty - Dallas,3200 Olympus Coppell TX 75019,Texas,32.9365374,-96.98566304,
2019,Complete,AUZUS0118,Commercial,Nokia,Owner Direct,3201 Olympus Blvd Coppell TX 75019,Texas,32.93681825,-96.98439485,
2019,Complete,AUZUS0093,Commercial,3201 Olympus,Structure Tone,3201 Olympus Blvd Dallas TX 75019,Texas,32.93681825,-96.98439485,https://www.auzmet.com/3201-olympus
In Progress,Active,AUZUS0266,Commercial,Okaloosa Gas District,Robins & Morton,"324 Valparaiso Pkwy, Valparaiso, FL 32580",Florida,30.51098838,-86.49439478,
2024,Complete,AUZUS0183,Commercial,3300 Olympus,DPR Construction - Dal,"3300 Olympus Blvd. Coppell, TX 75019",Texas,32.93727742,-96.98704849,
2019,Complete,AUZUS0114,Commercial,3333 Welborn,Owner Direct,3333 Welborn St Dallas TX 75219,Texas,32.80996424,-96.80625882,
2016,Complete,AUZUS0043,Commercial,Viawest,DPR,3500 East Plano Pkway Palno TX 75074,Texas,33.00758093,-96.66644089,
2019,Complete,AUZUS0121,Commercial,Rosewood court ,Balfour Beatty - Dallas,400 Crescent Crt Dallas TX 75201,Texas,32.79430218,-96.8040877,
2019,Complete,AUZUS0097,Commercial,Integris Moore OK,Admiral Roofing,4017 Gloucester Ln Norman OK  73072,Oklahoma,35.23174753,-97.50047912,
2018,Complete,AUZUS0094,Commercial,New York Crossing,Structure Tone,4100 New York Ave Arlington TX 76018,Texas,32.6799675,-97.08154704,
In Progress,Active,AUZUS0261,Commercial,OKCPS ES BP3,Manhattan Construction Company,"424 SW 29th Street, Oklahoma City, OK 73109",Oklahoma,35.43476488,-97.52039905,
2019,Complete,AUZUS0096,Commercial,The Realm,Hill & Wilkinson,440 State Highway 121 Lewisville TX 75056,Texas,32.99131467,-96.9788913,https://www.auzmet.com/the-realm
In Progress,Active,AUZUS0259,Commercial,Conor Live Oak,Cadence McShane Construction,"4931 Live Oak Street, Dallas TX 75206",Texas,32.80385193,-96.77189211,
2016,Complete,AUZUS0011,Commercial,AMERICAN COLLEGE OF EMERGENCY,Reed Architectural Products,4950 W Royal Ln Irving TX 75063,Texas,32.920222,-97.015709,
2017,Complete,AUZUS0064,Commercial,Ross Tower,Pacific Builders,500 N Akarad St Dallas TX 75201,Texas,32.78444889,-96.80018485,
2022,Complete,AUZUS0182,Commercial,WalMart Rogers,FMGI - ATL,"5000 W. Pauline Whittaker PKWY Rogers, AR 72758",Arkansas,36.29556299,-94.18591094,
2017,Complete,AUZUS0058,Commercial,Fikes family office HQ,Hill & Wilkinson,5024 Tracey St. Dallas TX 75205,Texas,32.82881449,-96.78475602,
2025,Complete,AUZUS0250,Commercial,North Lamar North Loop,White Construction,"5210 North Lamar Austin, TX 78751",Texas,30.32029555,-97.73029468,
2025,Complete,AUZUS0278,Commercial,N Expressway 77,Trespa,"5500 N. Expressway 77, Brownsville, TX 78526",Texas,25.98643315,-97.51889181,
2025,Complete,AUZUS0265,Commercial,Continuum,Brasfield & Gorrie,"5555 Windward Pkwy, Alpharetta, GA 30004",Georgia,34.08623934,-84.26853665,
2016,Complete,AUZUS0038,Commercial,Clearfork Office devleopment,Austin Commercial - Dallas,5600 Clearforck Main St Ft Worth TX 76102,Texas,32.70744523,-97.40572293,
2024,Complete,AUZUS0225,Commercial,5600 Headquarters,K2 Construction,"5600 Headquarters  Plano, TX 75024",Texas,33.0830704,-96.81621054,
2018,Complete,AUZUS0100,Commercial,Cap It,Ampco Manufacturers,5837 Denton HWY Haltom City TX 76148,Texas,32.85401833,-97.2645485,
2017,Complete,AUZUS0057,Commercial,Sanden International,Direct to Owner (Sanden),"601 Sanden Blvd, Wylie, TX 75098",Texas,33.00598829,-96.55775966,
2017,Complete,AUZUS0048,Commercial,Legacy west block D,Rogers O'Brien,6123 HQ Drive Plano TX 75024,Texas,33.08409998,-96.82663656,
2016,Complete,AUZUS0054,Commercial,Novartis,DPR,6201 S Freeway Fort Worth TX 76134,Texas,32.65661395,-97.31639674,
2018,Complete,AUZUS0078,Commercial,Traxxas,Pouge Constructions,6250 Traxxas Way McKinney TX 75070,Texas,33.14238917,-96.69539079,https://www.auzmet.com/traxxas
2016,Complete,AUZUS0042,Commercial,Blue Mesa Grill,Muckleroy & Fallas,"628 Carrol St Fort Worth, TX 76102",Texas,32.75279304,-97.35498946,
2024,Complete,AUZUS0173,Commercial,WalMart Broken Arrow,MyCon Construction - Okc,"6310 S Elm Pl Broken Arrow, OK 74011",Oklahoma,35.99155106,-95.80080807,
2019,Complete,AUZUS0116,Commercial,6500 Harry Hines,Hill & Wilkinson,6500 Harry Hines Dallas TX 75235,Texas,32.82300914,-96.84951022,
In Progress,Active,AUZUS0262,Commercial,Vickery West,Weis Builders,"800 West Vickery Blvd Fort Worth, TX 76104",Texas,32.74388176,-97.3335266,
2024,Complete,AUZUS0160,Commercial,8111 Douglas,Manhattan Construction Company,"8111 Douglas Ave, Dallas, TX 75225",Texas,32.86129027,-96.80970554,
2020,Complete,AUZUS0146,Commercial,JP Morgan Headquarters,Balfour Beatty - Dallas,"8181 Communications Pkwy Plano, TX 75024",Texas,33.08720691,-96.82772098,https://www.auzmet.com/jp-morgan
2023,Complete,AUZUS0168,Commercial,Morrison Yards,Balfour Beatty - SC,838 Morrison Dr CharlestownSC 29403,South Carolina,32.80238934,-79.93774407,
2023,Complete,AUZUS0222,Commercial,Canyon Ranch,Andres Construction,"850 Van Cliburn Way, Ft. Worth, TX 76107",Texas,32.7505114,-97.36445924,
In Progress,Active,AUZUS0300,Commercial,Salvation Army,Balfour Beatty,"8625 North Stemmons Freeway Dallas, TX 75247",Texas,32.8320525,-96.87690015,
2017,Complete,AUZUS0074,Commercial,6th Patrol Division,FPI Builders,8755 N. Riverside Dr. Fort Worth TX 76244,Texas,32.90005091,-97.30715154,
2020,Complete,AUZUS0130,Commercial,One Bethany West,Balfour Beatty - Dallas,900 W Bethany Dr Allen TX 75013,Texas,33.0913192,-96.68414264,
2020,Complete,AUZUS0134,Commercial,901 Kifer,CGI,901 Kifer Rd Sunnyvale CA 94086,California,37.37440816,-122.0089934,
2019,Complete,AUZUS0129,Commercial,Cypress waters,Billingsly Onwer Direct,9111 Cypress Waters Blvd Coppell TX 75019,Texas,32.93091715,-96.98712569,
2018,Complete,AUZUS0087,Commercial,Netscout,Balfour Beatty,915 Guardian Way Allen TX 75013,Texas,33.09394188,-96.68377779,https://www.auzmet.com/netscout
2018,Complete,AUZUS0072,Commercial,One Bethany,Balfour Beatty,915 Guardian Way Allen TX 75013,Texas,33.09394188,-96.68377779,
2016,Complete,AUZUS0013,Commercial,MOVIE TAVERN DENTON,Read Architectural Products,916 W University Dr. Denton TX 76201,Texas,33.230238,-97.141177,
2024,Complete,AUZUS0202,Commercial,George and Barbara Bush Foundation Pavilion,Manhattan Construction Company,"998 George Bush Drive West  College Station, TX 77845",Texas,30.59559648,-96.35381133,
2018,Complete,AUZUS0081,Commercial,JCTP,"Mulliken Construction Management, Inc",County Road 2178 & FM 1570 Greenville TX 75401,Texas,33.06503371,-96.15083482,
2021,Complete,AUZUS0167,Commercial,AC Element (Fabrication Project),Jordan Foster - San Antonio,1444 N Cockrell Hill Rd Dallas TX 75211,Fabrication Project,32.76162911,-96.89351535,
2015,Complete,AUZUS0006,Commercial,DAY NURSERY ABILENE (Fabrication Project),Read Architectural Products,1444 N Cockrell Hill Rd Dallas TX 75211,Fabrication Project,32.76162911,-96.89351535,
2017,Complete,AUZUS0052,Commercial,Fountain Place (Fabrication Project),Oakcliff Mirror and Glass,1444 N Cockrell Hill Rd Dallas TX 75211,Fabrication Project,32.76162911,-96.89351535,
2019,Complete,AUZUS0126,Commercial,Frisco 2 (Fabrication Project),Oakcliff Mirror and Glass,1444 N Cockrell Hill Rd Dallas TX 75211,Fabrication Project,32.76162911,-96.89351535,
2020,Complete,AUZUS0148,Commercial,Frisco 3 (Fabrication Project),Oakcliff Mirror and Glass,1444 N Cockrell Hill Rd Dallas TX 75211,Fabrication Project,32.76162911,-96.89351535,
2015,Complete,AUZUS0005,Commercial,HIGH POINT PARK (Fabrication Project),Read Architectural Products,1444 N Cockrell Hill Rd Dallas TX 75211,Fabrication Project,32.76162911,-96.89351535,
2015,Complete,AUZUS0007,Commercial,SOUTH MESQUITE (Fabrication Project),Read Architectural Products,1444 N Cockrell Hill Rd Dallas TX 75211,Fabrication Project,32.76162911,-96.89351535,
2015,Complete,AUZUS0002,Commercial,SOUTHLAKE (Fabrication Project),Read Architectural Products,1444 N Cockrell Hill Rd Dallas TX 75211,Fabrication Project,32.76162911,-96.89351535,
2015,Complete,AUZUS0004,Commercial,SOUTHWEST AIRLINES REPAIR (Fabrication Project),Read Architectural Products,1444 N Cockrell Hill Rd Dallas TX 75211,Fabrication Project,32.76162911,-96.89351535,
2015,Complete,AUZUS0009,Commercial,TEMPLE EMANUAL (Fabrication Project),Read Architectural Products,1444 N Cockrell Hill Rd Dallas TX 75211,Fabrication Project,32.76162911,-96.89351535,
2018,Complete,AUZUS0098,Commercial,Windrose Tower (Fabrication Project),Oakcliff Mirror and Glass,1444 N Cockrell Hill Rd Dallas TX 75211,Fabrication Project,32.76162911,-96.89351535,
2017,Complete,AUZUS0051,Commercial,Xcel Energy SPS Amarillo Hqrts,Oakcliff Mirror and Glass,1444 N Cockrell Hill Rd Dallas TX 75211,Fabrication Project,32.76162911,-96.89351535,
2024,Complete,AUZUS0188,Commercial,AEP Project Blue Cat,Turner,"I-20/Greenwood, Shreveport, LA 71103",Louisiana,32.48794815,-91.97635671,
2019,Complete,AUZUS0110,Data Center,Compass data center,Compass Data Center,1455 N Dallas Prkwy Dallas TX 75254,Texas,33.01884289,-96.83076392,
In Progress,Active,AUZUS0275,Data Center,Prime Data Center,Rogers O'brien,"1455 Round Table Dr. Dallas, TX 75247",Texas,32.83757676,-96.88058243,
2025,Complete,AUZUS0253,Data Center,Cyrusone SAT 8&9,Rogers Obrien,"14677 Omicron Dr, San Antonio, TX 78245",Texas,29.41333586,-98.78671214,
2025,Complete,AUZUS0217,Data Center,Microsoft 80+81 Datacenter,Turner Construction,"3354 FM 471 N
Castroville, TX 78009",Texas,29.42266405,-98.88705824,
2025,Complete,AUZUS0249,Data Center,AstraZeneca Train 7,DPR Construction,"508 Wrangler Dr.  Coppell, TX 75019",Texas,32.94092093,-97.00545149,
In Progress,Active,AUZUS0304,Data Center,AZ Tank Farm,DPR,"508 Wrangler Dr. Coppell, TX 75019",Texas,32.94092093,-97.00545149,
In Progress,Active,AUZUS0279,Data Center,Databank Red Oak DFW-9,Rogers O'Brien,"Stainback and Batchler Rd, Red Oak, TX 75154",Texas,32.53387671,-96.73513605,
2025,Complete,AUZUS0237,Education,Aledo ES No. 7,CORE Construction,"1008 Bailey Ranch Rd, Aledo, TX 76008",Texas,32.71141089,-97.61719967,
2025,Complete,AUZUS0193,Education,Lake Highlands Middle School,Cadence McShane Construction,"10301 Walnut Hill Ln, Dallas TX, 75238",Texas,32.88028829,-96.70828773,https://www.auzmet.com/lake-highlands-middle-school
2018,Complete,AUZUS0070,Education,Northwest ISD,Pouge Constructions,1069 Eagle Blvd Ft Worth TX 76052,Texas,32.94217616,-97.38383404,
2017,Complete,AUZUS0034,Education,Texas A&M Human health,Skanska,11 Greenway Plaza Houston TX 77046,Texas,29.7322,-95.435513,
In Progress,Active,AUZUS0268,Education,University of Houston Palo Alto,Turner Construction,"11102 S Zarzamora St, San Antonio, TX 78224",Texas,29.3074011,-98.53330069,
2024,Complete,AUZUS0227,Education,Martha Turner Reilly Elementary School,Ratcliff Constructors,"11230 Lippitt Ave  Dallas, TX 75218",Texas,32.85509639,-96.68820021,
In Progress,Active,AUZUS0301,Education,Borman Elementary School,Joeris,"1201 Parvin St. Denton, TX 76205",Texas,33.19005051,-97.14595064,
2019,Complete,AUZUS0132,Education,Marion Elementary School,Balfour Beatty - Dallas,"1595 Stablerun Dr Allen TX, 75002",Texas,33.12338862,-96.64137636,https://www.auzmet.com/marion-elementary
2019,Complete,AUZUS0090,Education,Eagle Mountain,Pouge Constructions,1600 Mustang Rock Rd Ft Worth 76106,Texas,32.84215374,-97.39464371,
In Progress,Active,AUZUS0260,Education,University of Houston Retama,Layton Construction,"16300 Retama Pkwy, Selma, TX 78154",Texas,29.58627599,-98.3237095,
In Progress,Active,AUZUS0309,Education,Mundo Verde,Gilbane,"17 Varnum St. NE WASHINGTON, DC 20017",District of Columbia,38.9430491,-77.00699689,
In Progress,Active,AUZUS0312,Education,Mendez Elementary School,CORE Construction,"1805 Peter Garza Dr. San Marcos, TX 78666",Texas,29.8597603,-97.94625996,
2016,Complete,AUZUS0024,Education,WALTRIP HIGH SCHOOL,Satterfield and Pontikes,1900 W 34th St. Houston TX 77007,Texas,29.819152,-95.434274,
2024,Complete,AUZUS0204,Education,Waco High School,Rogers O'Brien,"2020 N 42nd St., Waco, Tx 76710",Texas,31.54267355,-97.18686347,
In Progress,Active,AUZUS0287,Education,University of Texas DKR,Turner Construction,"2139 San Jacinto Blvd. Austin, TX 78712",Texas,30.28367974,-97.73253496,
2017,Complete,AUZUS0037,Education,UTD - Interior Panels,Turner Construction - Dallas,2200 W Mockingbird LN Dallas TX 75235,Texas,32.82483201,-96.8477848,
2025,Complete,AUZUS0234,Education,Paragon Mills Elementary,Nabholz Construction Corporation,"260 Paragon Mills Rd, Nashville, TN 37211",Tennessee,36.08787496,-86.70698906,
In Progress,Active,AUZUS0288,Education,University of Texas Whitis Court,Andres Construction,"2610 Whitis Ave, Austin, TX 78705",Texas,30.29092025,-97.74047171,
2023,Complete,AUZUS0190,Education,Anna Middle School,Lee Lewis Construction,"2700 Leonard Ave. Anna, TX 75409",Texas,33.32523722,-96.5446716,
In Progress,Active,AUZUS0297,Education,Haggard Middle Sschool,CORE,"2832 Parkhaven Dr, Plano, TX 75075",Texas,33.03296368,-96.74956252,
2021,Complete,AUZUS0125,Education,Sherman High School,Cadence McShane,2907 W Travis St Sherman TX 75092,Texas,33.60010942,-96.63445387,https://www.auzmet.com/sherman-high-school
In Progress,Active,AUZUS0263,Education,Sherman High School Addition,CORE Construction,"2907 W Travis St. Sherman, Tx 75092",Texas,33.60010942,-96.63445387,
In Progress,Active,AUZUS0289,Education,Sherman Stadium,CORE Construction,"2907 W Travis St. Sherman, Tx 75092",Texas,33.60010942,-96.63445387,
In Progress,Active,AUZUS0281,Education,Barton Elementary School,CORE Construction,"2931 Conflans
Irving, Texas 75061",Texas,32.82291163,-96.986018,
2016,Complete,AUZUS0030,Education,UTA Career and leadership center,Vaughn Construction,300 W. First St Arlington TX 76010,Texas,32.731812,-97.11199,
2020,Complete,AUZUS0140,Education,Tamus AG,Bartlett Cocke,3100 TX-47 Bryan TX 77807,Texas,30.64437488,-96.46491217,
2020,Complete,AUZUS0133,Education,Justin F Kimball High School,Big Sky Construction,"3606 S Westmoreland Rd Dallas TX , 75233",Texas,32.69982693,-96.87798887,https://www.auzmet.com/jfk-high-school
2019,Complete,AUZUS0128,Education,Mesquite School District,,3819 Towne Crossing Mesquite TX 75150,Texas,32.81708933,-96.63154799,
2022,Complete,AUZUS0164,Education,TAMU,Manhattan - Dal,"400 Bizzell St College Station, TX 77843",Texas,30.61870171,-96.33646882,
2025,Complete,AUZUS0251,Education,Hays Johnson HS Expansion & Reno,CORE Construction,"4260 FM 967, Buda, TX 78610",Texas,30.09578367,-97.89244036,
2019,Complete,AUZUS0119,Education,North Richland Hills City Hall,Balfour Beatty - Dallas,"4301 City Point Dr, North Richland Hills, TX 76180",Texas,32.82716803,-97.2162623,
2018,Complete,AUZUS0082,Education,Melissa Elementary School,Jackson Construction,4401 Cypress Dr. Melissa TX 75454,Texas,33.30783531,-96.55640362,
2020,Complete,AUZUS0113,Education,CFB ISD,Balfour Beatty - Dallas,455 E Law Villita Blvd Irving TX 75039,Texas,32.90435278,-96.93949385,
2018,Complete,AUZUS0075,Education,Dallas district HQ,Ratcliff Constructors,4777 E Highway 80 Mesquite TX 75150,Texas,32.80002664,-96.67294688,
2020,Complete,AUZUS0111,Education,"University of Houston Housing ""The Quad""",Austin Commercial - Dallas,4800 Calhoughn Rd Houston TX 77004,Texas,29.72185938,-95.3401128,
2017,Complete,AUZUS0031,Education,NORTH RICHLAND MIDDLE SCHOOL,Ratcliff Constructors,4801 Redondo St North Richland TX Hills 761880,Texas,32.834769,-97.235298,
2018,Complete,AUZUS0112,Education,Buckner Terrace Montessori (Preiously Edna Rowe Elementary School),Big Sky Construction,4918 Hovenkamp Dr Dallas TX 75227,Texas,32.78497176,-96.70663343,https://www.auzmet.com/buckner-terrace
In Progress,Active,AUZUS0272,Education,University of Texas Arlington Life Science,Hensel Phelps,"501 S Nedderman Dr, Arlington, TX 76013",Texas,32.7288029,-97.11277107,
In Progress,Active,AUZUS0295,Education,Garland MPAC,CORE,501 South Jupiter Rd. Garland TX 75042,Texas,32.90860091,-96.68396412,
In Progress,Active,AUZUS0255,Education,Fairview Elementary Sschool,CORE Construction,"501 W Taylor St, Sherman, TX 75090",Texas,33.654742,-96.62136919,
In Progress,Active,AUZUS0256,Education,Crutchfield Elementary School,CORE Construction,"521 S Dewey Ave, Sherman, TX 75090",Texas,33.63675317,-96.58637983,
2025,Complete,AUZUS0235,Education,Henry W Longfellow Academy,Cadence McShane Construction,"5314 Boaz St, Dallas, TX 75209",Texas,32.84782034,-96.81939007,
In Progress,Active,AUZUS0298,Education,TCAT Memphis,Turner,"550 Alabama Ave. Memphis, TN 38103",Tennessee,35.14945503,-90.03900791,
In Progress,Active,AUZUS0311,Education,TL Marsalis,Crowther Group,"5640 S Marsalis Ave, Dallas, TX 75241",Texas,32.67801678,-96.81398604,
2017,Complete,AUZUS0076,Education,Allen ISD,Balfour Beatty - Dallas,5705 Cheyenne Drive Allen TX 75002,Texas,33.08112664,-96.63829,
2018,Complete,AUZUS0069,Education,Lowery 9th Grade,Lee Lewis Construction,601 E. Main St. Allen TX 75002,Texas,33.10282949,-96.65726997,
In Progress,Active,AUZUS0274,Education,Texas State STEM Classroom,Skanska,"601 University Dr. 
San Marcos, TX 78666",Texas,29.88873951,-97.93740314,
2019,Complete,AUZUS0106,Education,Lowery Dillard,Lee Lewis Construction,610 E Bethany Dr. Allen TX 75002,Texas,33.08495814,-96.66523155,
2020,Complete,AUZUS0107,Education,UTSWMC,Austin Commercial - Dallas,6201 Harry Hines Blvd Dallas TX 75201,Texas,32.81980148,-96.84218865,
2025,Complete,AUZUS0239,Education,Garland Central Library,CORE Construction,"625 Austin St, Garland, TX 75040",Texas,32.91476317,-96.63837867,
In Progress,Active,AUZUS0308,Education,Herndon Elementary School,Howard Shockey & Sons,"630 Dranesville Rd, Herndon, VA 20170",Virginia,38.97592405,-77.37674225,
In Progress,Active,AUZUS0307,Education,Herndon Elementary School Renovations and Additions,Howard Shockey & Sons,"630 Dranesville Rd, Herndon, VA 20170",Virginia,38.97592405,-77.37674225,
2018,Complete,AUZUS0095,Education,Jasper High School,Cadence McShane,6800 Archgate Dr Plano TX 75024,Texas,33.06753627,-96.78321091,
2024,Complete,AUZUS0208,Education,PWA,Turner Construction,"6801 River Place Blvd., Austin,TX, 78726",Texas,30.39546429,-97.84162553,
2016,Complete,AUZUS0055,Education,Gramercy ER,Z Constructors,6902 NE Zac Lentz Prkwy Victoria TX 77904,Texas,28.86506776,-96.991242,
2017,Complete,AUZUS0066,Education,UNT Residence,S&G Joint Venture,7300 University Hills Blvd Dallas TX 75241,Texas,32.65954501,-96.80352879,
In Progress,Active,AUZUS0310,Education,LBJ High School Athletics Building and Central Plant,Rogers O'Brien,"7309 Lazy Creek Dr. Austin, TX 78724",Texas,30.31365456,-97.65686232,
2020,Complete,AUZUS0138,Education,El Paso High School,F.T James Construction,800 E Schuster Ave El Paso TX 79902,Texas,31.77291487,-106.4908125,
2025,Complete,AUZUS0213,Education,Fine Arts + Dual Language Academy,JOERIS General Contractors,"818 W. Park Ave  Arlington TX, 76013",Texas,32.72012388,-97.11637086,
2020,Complete,AUZUS0139,Education,Strike Middle School,Cadence McShane,8798 Scotty's LK Ln The Colony TX 75056,Texas,33.12105327,-96.90775913,https://www.auzmet.com/strike-middle-school
In Progress,Active,AUZUS0270,Education,CISD North HS & 9th,Balfour Beatty,"9100 S Hulen, Fort Worth, TX 76123",Texas,32.6104296,-97.39437498,
2025,Complete,AUZUS0245,Education,YDSP Early Learning Center + Brave,Jordan Foster Construction,"9311 Nakitu Dr, El Paso, TX 79907",Texas,31.6835664,-106.323455,
2024,Complete,AUZUS0233,Education,Forest Meadow Middle School,CORE Construction,"9373 Whitehurst Drive  Dallas, TX 75243",Texas,32.90119439,-96.7400199,https://www.auzmet.com/forest-meadows
2022,Complete,AUZUS0159,Education,YDSP,Jordan Foster - El Paso,"9473 Socorro Rd El Paso TX, 79907",Texas,31.68155549,-106.3177764,
2023,Complete,AUZUS0157,Education,University of Texas Practice,AE Com Hunt,"CNR 20th St & Robert Dedman Dr Austin, TX 78712",Texas,30.28102144,-97.73184273,
2018,Complete,AUZUS0080,Education,UoH - CW Fabrication (Fabrication Project),Oakcliff Mirror and Glass,1444 N Cockrell Hill Rd Dallas TX 75211,Fabrication Project,32.76163032,-96.89351482,
2018,Complete,AUZUS0079,Education,UTA - CW Fabrication (Fabrication Project),Oakcliff Mirror and Glass,1444 N Cockrell Hill Rd Dallas TX 75211,Fabrication Project,32.76163032,-96.89351482,
2020,Complete,AUZUS0147,Education,UTSW Brain + Cancer (Fabrication Project),Turner Construction - San Antonio,1444 N Cockrell Hill Rd Dallas TX 75211,Fabrication Project,32.76163032,-96.89351482,
2025,Complete,AUZUS0248,Federal,Houston Police Complex & Parking Garage,Tellepsen,"1103 Goliad Street, Houston, TX 77002",Texas,29.76776748,-95.3708078,
2022,Complete,AUZUS0158,Federal,Lubbock Municipal Court,Lee Lewis Construction,"1214 14th St. Lubbock, TX 79401",Texas,33.58293828,-101.822498,
2024,Complete,AUZUS0191,Federal,Lubbock Police Headquarters,Lee Lewis Construction Inc.,"1401 15th St. Lubbock, TX 79401",Texas,33.58159513,-101.8483895,
2019,Complete,AUZUS0137,Federal,Plano Library Rec,Pouge Constructions,1520 K Ave Plano TX 75074,Texas,33.02067915,-96.69878496,
2024,Complete,AUZUS0150,Federal,DART Silver Line,Archer Western Herzog,"1548 Valwood Pkwy 118, Carrolton, TX 75006",Texas,32.93875116,-96.92217137,https://www.auzmet.com/addison-dart-station
In Progress,Active,AUZUS0305,Federal,RRMC Building A & B Security Operations Access,Grunley,"450 Harbaugh Valley Rd. Fairfield, PA 17320",Pennsylvania,39.73280998,-77.42142795,
2018,Complete,AUZUS0086,Federal,City of Plano Recreational Center,Pouge Constructions,6000 Jupiter Rd. Plano TX 75074,Texas,33.05425798,-96.67971428,https://www.auzmet.com/plano-recreational-center
In Progress,Active,AUZUS0258,Federal,Elm Ridge Municipal,Crossland Construction,"700 Savannah Blvd, Aubrey, TX 76227",Texas,33.22106995,-96.90284085,
In Progress,Active,AUZUS0320,Federal,WMATA Bethesda,Clark,"7450 Wisconsin Avenue, Bethesda, MD",Maryland,38.98437652,-77.09603532,
2016,Complete,AUZUS0039,Federal,Hurst Justice Center,AUI General Contractors,825 Thousand Oaks Dr. Hurst TX 76054,Texas,32.84094476,-97.18833064,
In Progress,Active,AUZUS0321,Federal,Nolan,Grunley,"8825 Beulah St Ft., Belvoir, VA. 22060",Virginia,38.71938511,-77.15738662,
2015,Complete,AUZUS0003,Federal,POLICE AVIATION (Fabrication Project),Read Architectural Products,1444 N Cockrell Hill Rd Dallas TX 75211,Fabrication Project,32.76162977,-96.89351412,
In Progress,Active,AUZUS0291,Federal,Project G,Grunley,National Park Service.  The White House and Presidents Park,District of Columbia,38.89521209,-77.03273721,
In Progress,Active,AUZUS0322,Federal,AOC TJB Visitor Experience,Kiewit,Thomas Jefferson Building - Washington DC,District of Columbia,38.88872616,-77.00487473,
In Progress,Active,AUZUS0314,Healthcare,"NIH Surgical, Radiological & Lab Medicine",Hensel Phelps,"10 Center Dr, Bethesda MD 20892",Maryland,39.00315438,-77.1044345,
In Progress,Active,AUZUS0280,Healthcare,Central Health,Rogers O'Brien,"1000 E 41st St, Unit 700, Austin, TX 78751",Texas,30.29859516,-97.71895473,
2021,Complete,AUZUS0131a,Hospitality,Omni Hotel - Tepco (Supply Spandrel),Tepco (Glazier on site),100 Oklahoma City Blvd OKC OK 73109,Oklahoma,35.46161779,-97.51565924,
2016,Complete,AUZUS0041,Healthcare,Excel ER - Longview,Z Constructors,"120 E Loop 281, Longview, TX 75605",Texas,32.54134397,-94.74237118,
2022,Complete,AUZUS0153,Healthcare,Children's MOB,Z Constructors,"1300 Childrens Way Prosper, TX 75078",Texas,33.22054112,-96.82377122,
2016,Complete,AUZUS0040,Healthcare,Excel ER - Nacodoches,Z Constructors,"1420 North St, Nacogdoches, TX 75961",Texas,31.61522179,-94.65206384,
2020,Complete,AUZUS0145,Healthcare,HMCL,HOAR Construction,"18123 Upper Bay Rd Houston TX, 77058",Texas,29.54940626,-95.08831336,
2025,Complete,AUZUS0214,Healthcare,CNMC Surgery Addition,Manhattan Construction Company,"1921 Stone Cipher Blvd., Ada, OK 74820",Oklahoma,34.73115241,-96.64536622,
2019,Complete,AUZUS0108,Healthcare,Ambulatory Surgery Center McKinney,Z Constructors,215 Dogwood Trail McKinney TX 75071,Texas,33.19783295,-96.64985348,https://www.auzmet.com/wellnessambulatorysurgerycenter
2016,Complete,AUZUS0035,Healthcare,Excel ER - Texarkana,Z Constructors,4102 Gibson Ln Texarkana TX 75703,Texas,33.459643,-94.094283,
2016,Complete,AUZUS0025,Healthcare,CODE 3M,Z Constructors,4228 N Josey Ln Carrolton TX 75010,Texas,33.02656,-96.884004,
2025,Complete,AUZUS0246,Healthcare,Demo Former Parkland Metal Package,Beck,"5200 Harry Hines Blvd, Dallas, TX 75235",Texas,32.81318574,-96.83556714,
2019,Complete,AUZUS0099,Healthcare,Mckinney HIH (Baylor Medical Center),Medco Construction,5252 University Dr McKinney TX 77071,Texas,33.2208769,-96.6823235,https://www.auzmet.com/baylor-medical-center
2016,Complete,AUZUS0023,Healthcare,NORMAN REG HEALTH SYSTEM,Flintco Constructive Solutions,700 S Telephone RD Moore OK 73160,Oklahoma,35.332328,-97.493487,
2015,Complete,AUZUS0001,Healthcare,PINNACLE ER HURST,Z Constructors,"824 Airport Freeway. Hurst, TX 76054",Texas,32.839999,-97.188109,
2017,Complete,AUZUS0083,Healthcare,Texas Scottish (Fabrication Project),Oakcliff Mirror and Glass,1444 N Cockrell Hill Rd Dallas TX 75211,Fabrication Project,32.76163048,-96.89351483,
2020,Complete,AUZUS0149,Healthcare,THR Surgery (Fabrication Project),Oakcliff Mirror and Glass,1444 N Cockrell Hill Rd Dallas TX 75211,Fabrication Project,32.76163048,-96.89351483,
2021,Complete,AUZUS0131,Hospitality,Omni Hotel,Brasfield & Gorrie,100 Oklahoma City Blvd OKC OK 73109,Oklahoma,35.4616165,-97.51565996,
2017,Complete,AUZUS0061,Hospitality,Hampton Inn & Suites,Weis Builders,1005 Commerce St Fort Worth TX 76102,Texas,32.75165306,-97.32766473,https://www.auzmet.com/hampton-inn-suites
2022,Complete,AUZUS0163,Hospitality,Intercontinental at City Place,Brasfield & Gorrie - Dal,"2711 N Haskell Dallas, TX 75204",Texas,32.80548988,-96.79258452,
2019,Complete,AUZUS0109,Hospitality,HG Supply,Z Constructors,3090 Olive St Dallas TX 75070,Texas,32.7894175,-96.80914199,
2022,Complete,AUZUS0169,Hospitality,Crescent Fort Worth Hotel,Andres Construction,"3300 Camp Bowie Blvd Ft Worth, TX 76107",Texas,32.75006214,-97.36510446,
In Progress,Active,AUZUS0293,Hospitality,ALBA Palm Beach,MOSS,4714 N. Flagler Dr. West Palm Beach FL 33407,Florida,26.75404318,-80.05218499,
2020,Complete,AUZUS0142,Hospitality,Residence Inn (Waterside),Weis Builders,5825 Arborlawn Dr Fort Worth TX 76109,Texas,32.69816383,-97.41450664,
2016,Complete,AUZUS0046,Hospitality,Renaissance Louvres,Brasfield & Gorrie,6007 Legacy Dr. Plano TX 75024,Texas,33.07869468,-96.8269194,
2019,Complete,AUZUS0117,Hospitality,Warrior Hotel,BSI Constructors,6th & Nebraska St Sioux Iowa 51101,Iowa,42.4963462,-96.40346735,
2025,Complete,AUZUS0229,Hospitality,Saracen Hotel and Event Center - Phase 1,Flintco,"1 Saracen Resort Drive  Pine Bluff, AR 716010",Arkansas,34.20992217,-91.96291107,
2016,Complete,AUZUS0026,Hospitality,Adolphos Hotel,Reynolds Specialty Products LLC,1321 Commerce St Dallas TX 75202,Texas,32.77998,-96.799858,
2017,Complete,AUZUS0068,Industrial,DCT - Miller RD,Structure Tone - Dallas,10930 Miller Rd Garland TX 75238,Texas,32.89445657,-96.6951828,
2016,Complete,AUZUS0028,Industrial,DCT FREEPORT,FCL Builders,1204 W Bethel Rd. Coppell TX. 75019,Texas,32.955869,-97.030765,https://www.auzmet.com/dct-freeport
2022,Complete,AUZUS0178,Industrial,Alliance Center East,Hilllwood Construction Services,"13650 N Freeway FT Worth, TX 76177",Texas,32.97942154,-97.30664913,https://www.auzmet.com/alliance-center-east
2024,Complete,AUZUS0236,Industrial,Alliance Center East 1 - Target TI,Hillwood Construction Services,"13750 N. Fwy
Ft. Worth, TX 76177",Texas,32.97749432,-97.30514257,https://www.auzmet.com/alliance-center-east
2023,Complete,AUZUS0186,Industrial,Alliance Center North 8,Hilllwood Construction Services,"15350 N Beach St. Fort Worth, TX 76177",Texas,33.00649094,-97.28115726,
2023,Complete,AUZUS0181,Industrial,Alliance Center North 9,Hilllwood Construction Services,"15350 N Beach St. Fort Worth, TX 76177",Texas,33.00649094,-97.28115726,
2016,Complete,AUZUS0044,Industrial,Riverbend west distribution,EMJ Construction,2101 Reeves Place Ft Worth TX 76118,Texas,32.79008516,-97.22585826,
2024,Complete,AUZUS0231,Industrial,Alliance Center East 2,Hillwood Construction Services,"2601 Spirit Drive
                Fort Worth, TX 76177",Texas,32.97772634,-97.30652611,https://www.auzmet.com/alliance-center-east
2024,Complete,AUZUS0232,Industrial,Alliance Center East 3,Hillwood Construction Services,"2701 Spirit Drive
                Fort Worth, TX 76177",Texas,32.97834519,-97.30121055,https://www.auzmet.com/alliance-center-east
2016,Complete,AUZUS0053,Industrial,Trinity Crossing,The Conlan Company,3100 Roy Orr Blvd Grand Prarie TX 75050,Texas,32.80049098,-97.02975518,
2023,Complete,AUZUS0185,Industrial,Core 5 Logistics Center,Cadence McShane,"3827 N McDonald St. Mckinney, TX 75248",Texas,33.23688263,-96.61186858,
In Progress,Active,AUZUS0294,Industrial,Trinity Mills Lease Space,SCI Construction,4460 Trinity Mills Rd. Dallas TX 75287,Texas,32.98952532,-96.83120688,
2025,Complete,AUZUS0240,Industrial,Dallas College MVC,Cadence McShane Construction,"4849 W. Illinois Ave, Dallas, TX 75211",Texas,32.72821149,-96.90580954,
2016,Complete,AUZUS0029,Industrial,DCT WATERS RIDGE,FCL Builders,514 Bennett Ln Lewisville TX. 75057,Texas,33.02494,-96.984742,https://www.auzmet.com/dct-waters-edge
2023,Complete,AUZUS0180,Industrial,Hillwood Commons II,Hilllwood Construction Services,"9900 Hillwood PKWY Fort Worth, TX76177",Texas,32.92014061,-97.31194399,
2022,Complete,AUZUS0156,Industrial,El Paso Logistics Park (Fabrication Project),Admiral Roofing,1444 N Cockrell Hill Rd Dallas TX 75211,Fabrication Project,32.76163066,-96.89351427,
2023,Complete,AUZUS0187,Industrial,El Paso Logistics Park Phase 2 (Fabrication Project),Commercial Roofing Systems Inc.,1444 N Cockrell Hill Rd Dallas TX 75211,Fabrication Project,32.76163066,-96.89351427,
2022,Complete,AUZUS0154,Industrial,Amazon Distrubution Facility 5,Hilllwood Construction Services,"Litsey Rd and N. Beach St Ft Worth, TX 76177",Texas,33.00905431,-97.27937289,https://www.auzmet.com/amazon-ddf5
2022,Complete,AUZUS0155,Industrial,Amazon Distrubution Facility 6,Hilllwood Construction Services,RISENGER Rd and Old Burleson Rd TX 76140,Texas,32.61385725,-97.31702815,https://www.auzmet.com/amazon-ddf6
2016,Complete,AUZUS0020,Multi Family,THE FOUNTAINS APARTMENTS,Parc Plaza Developments,10011 N Central Expressway Dallas TX 75231,Texas,32.88393,-96.770918,
2024,Complete,AUZUS0161,Multi Family,Symphony Square,"Greystar Development and Construction, L.P.","1104 Sabine St, Austin, TX 78701",Texas,30.27112748,-97.73444722,
2024,Complete,AUZUS0211,Multi Family,Floodgate Apartments,Jordan Foster Construction,"143 East Commerce Street  San Antonio, TX 78205",Texas,29.42487325,-98.49211567,
2020,Complete,AUZUS0123,Multi Family,Atelier Flora,Balfour Beatty - Dallas,1801 N Pearl St Dallas TX 75201,Texas,32.78893648,-96.79940034,https://www.auzmet.com/atelier-flora
2017,Complete,AUZUS0063,Multi Family,The Ascent,HOAR Construction,2588 N Houston St Dallas TX 75219,Texas,32.79082437,-96.80906754,
2022,Complete,AUZUS0151,Multi Family,Selene Apartments (Previously KMM Uptown),Weis Builders,2610 Maple Ave Dallas TX 75201,Texas,32.79593508,-96.8044293,https://www.auzmet.com/selene-apt
2025,Complete,AUZUS0200,Multi Family,2800 Taylor,Andres Construction Services,"2800 Taylor St., Dallas TX 75226",Texas,32.78122438,-96.78194295,https://www.auzmet.com/2800taylor
2024,Complete,AUZUS0165,Multi Family,Hines Maple Terrace,Walsh Group,"3001 Maple Ave Dallas, TX 75201",Texas,32.79812775,-96.80847378,
In Progress,Active,AUZUS0269,Multi Family,McNair W 11th St,Cadence McShane Construction,"3001 W 11th Street Houston, Texas 77008",Texas,29.78831608,-95.43149474,
2024,Complete,AUZUS0198,Multi Family,Crescent Museum Place,Andres Construction Services,"3300 Camp Bowie St.  Fort Worth, TX 76102",Texas,32.75006254,-97.36510599,https://www.auzmet.com/crescent-musuem-place
2021,Complete,AUZUS0136,Multi Family,48 East,AE Com Hunt,"48 East Ave Austin, TX 78701",Texas,30.2564821,-97.73885442,
2025,Complete,AUZUS0215,Multi Family,Stella Lofts,Brasfield & Gorrie,"660 11th St  Atlanta, GA 30318",Georgia,33.78276652,-84.40910808,
2025,Complete,AUZUS0207,Multi Family,80 Rainey,JE Dunn,"80 Rainey St, Austin, TX 78701",Texas,30.2592568,-97.73903526,https://www.auzmet.com/8111-douglas
2024,Complete,AUZUS0184,Multi Family,900 Cleveland,Weis Builders,"900 Dickerson Pike Nashville, TN 37207",Tennessee,36.18787803,-86.77350737,
2024,Complete,AUZUS0224,Municipal,Endeavor VWC,Jordan Foster Construction,"12135 Pebble Hills Blvd.  El Paso, TX 79936",Texas,31.77781623,-106.2707141,
In Progress,Active,AUZUS0267,Municipal,Del Valle Library,Turner Construction,"13512 FM812, Del Valle, TX 78617",Texas,30.12407458,-97.63850278,
In Progress,Active,AUZUS0286,Municipal,Metro MOW Facility,Satterfield & Pontikes,"1603 Keene St. Houston, TX 77009",Texas,29.77296524,-95.36129677,
2016,Complete,AUZUS0016,Municipal,HOLLYHOCK AMENITY CENTER,Ratcliff Constructors,16360 Hollyhock Rd Frisco TX 75078,Texas,33.213869,-96.871152,
In Progress,Active,AUZUS0315,Municipal,Crisis Receiving and Stabilization Center,Davis Construction,"16480 Meadowview Ct. Leesburg VA, 22060",Virginia,39.07741561,-77.54991699,
In Progress,Active,AUZUS0273,Municipal,Loudoun County Fire & Rescue,Carlson,"16599 Courage CT. Leesburg, VA 20175",Virginia,39.07414041,-77.55099931,
In Progress,Active,AUZUS0316,Municipal,Loudoun County Fire & Rescue,Carlson,"16599 Courage CT. Leesburg, VA 20175",Virginia,39.07414041,-77.55099931,
In Progress,Active,AUZUS0282,Municipal,Spring Fire Department,Volger Sheetmetal,"26200 G Lexington Rd, Spring TX, 77373",Texas,30.07284312,-95.42325789,
2023,Complete,AUZUS0172,Municipal,Round Rock Public Library,Hensel Phelps - Aus,"300 E Liberty Ave Round Rock, TX 78664",Texas,30.5103135,-97.6767538,
2019,Complete,AUZUS0115,Municipal,Sachse Community center,Ratcliff Constructors,3815 Sachse Rd Sachse TX 75048,Texas,32.97402479,-96.5847794,
2025,Complete,AUZUS0254,Municipal,Putnam City Centennial Center & Park,Lingo Construction,"4301 N Ann Arbor Ave, Warr Acres, OK 73132",Oklahoma,35.5154491,-97.61056375,
2018,Complete,AUZUS0091,Municipal,Warmack Library,Pouge Constructions,760 Bardin RD. Grand Prairer TX 75052,Texas,32.66746763,-97.01446223,
2024,Complete,AUZUS0162,Municipal,El Paso Children's Museum (Fabrication Project),Commercial Roofing Systems Inc.,1444 N Cockrell Hill Rd Dallas TX 75211,Fabrication Project,32.76162987,-96.89351495,
2015,Complete,AUZUS0008,Municipal,TCU LIBRARY (Fabrication Project),Read Architectural Products,1444 N Cockrell Hill Rd Dallas TX 75211,Fabrication Project,32.76162987,-96.89351495,
In Progress,Active,AUZUS0276,Municipal,Mary john Gray Library,Turner Construction,"Martin Luther King Jr Parkway, Beaumont, TX, 77705",Texas,30.09765537,-94.1109312,
2017,Complete,AUZUS0071,Program Work,Graff Chevrolet,Direct to Owner (Dealership),1405 E. Main St. Grand Prairie TX 75050,Texas,32.74666323,-96.9868865,https://www.auzmet.com/graff-chevy
2016,Complete,AUZUS0015,Program Work,"Boerne Dodge, Chevy, Jeep, Ram",Huband-Mantor Construction Inc,30300 IH-10 West Boerne TX 78006,Texas,29.744481,-98.690958,
2022,Complete,AUZUS0152,Program Work,Kroger,Big D Construction,"4221 Telephone Rd.  Dallas, TX 75241",Texas,32.63794309,-96.75374585,https://www.auzmet.com/kroger
2024,Complete,AUZUS0223,Program Work,Jim Norton Chevrolet,Thompson Construction Inc.,"4924 South Memorial Drive  Tulsa, OK 74145",Oklahoma,36.09234329,-95.88790666,
2024,Complete,AUZUS0241,Program Work,Knoxville Health Center,Lubin Enterprises,"710 North Cherry St, Knoxville, TX, 37914",Texas,35.98999352,-83.89682544,
2018,Complete,AUZUS0073,,Wade Park,Balfour Beatty,1444 N Cockrell Hill Rd Dallas TX 75211,Fabrication Project,32.76162987,-96.89351495,
2019,Complete,AUZUS0101,Program Work,Honda Weatherford,FORT Construction,851 W i20 Weatherford TX 76087,Texas,32.48794881,-91.97635801,
2024,Complete,AUZUS0194,Program Work,"McKinney Chevy, Dodge, Ram, Jeep",Crossland Construction Company,"US Hwy 75 at Rockhill Rd, McKinney TX 75069",Texas,40.89150444,-95.91132026,https://www.auzmet.com/mckinney-cdrj
In Progress,Active,AUZUS0283,Multi Family,152 Oakdale,Mosaic Building Co,152 Oakdale Rd. Trinidad TX 75163,Texas,32.19482702,-96.10037704,
2015,Complete,AUZUS0014,Multi Family,2203 KESSLER WOODS,Read Architectural Products,"2203 Kessler Woods Crt, Dallas TX 75208",Texas,32.752516,-96.853949,
2025,Complete,AUZUS0218,Multi Family,Rock Residence,Starside Custom Builders,"3425 Ranchero Rd  Plano, TX 75093",Texas,33.04534007,-96.80694175,
In Progress,Active,AUZUS0284,Multi Family,60 Ladoga,Coastal,"60 Ladoga Ave. Tampa, FL 33606",Florida,27.92035215,-82.46216651,
2025,Complete,AUZUS0205,Multi Family,9246 Sunnybrook,Tatum Brown,"9246 Sunnybrook Lane  Dallas, TX 75220",Texas,32.86895845,-96.82645963,
In Progress,Active,AUZUS0302,Multi Family,Chophouse B10,Pacific Builders,"901 Commerce St. Fort Worth, TX 75102",Texas,32.7524168,-97.32805619,
2025,Complete,AUZUS0212,Sports,Maps 4,Midwest Drywall,"301 Gordon Cooper Blvd. Oklahoma City, OK 73108",Oklahoma,35.46931682,-97.56906798,
In Progress,Active,AUZUS0292,Sports,Midland Athletic Complex,Lee Lewis,5501 Deauville Dr. Midland TX 79706,Texas,31.99156592,-102.1543801,
2016,Complete,AUZUS0019,Sports,DALLAS COWBOYS HQ,Alliance Glazing Technologies,6600 Cowboys Pkwy Frisco TX 75034,Texas,33.109052,-96.826787,
In Progress,Active,AUZUS0285,Sports,US Soccer Federation Training Center,Brasfield & Gorrie,"910 Veterans Pkwy Fayetteville, GA 30214",Georgia,33.50211094,-84.50852824,
